,City,Lat,Lng,Max Temp,Humidity,Cloudiness,Wind Speed,Country,Date
0,upernavik,72.7868,-56.1549,-2.56,76,100,6.91,GL,1617052825
1,hermanus,-34.4187,19.2345,66.0,61,22,3.04,ZA,1617052827
2,tasiilaq,65.6145,-37.6368,19.4,63,0,1.14,GL,1617052840
3,vestmannaeyjar,63.4427,-20.2734,34.11,63,99,6.93,IS,1617052887
4,yellowknife,62.456,-114.3525,6.01,47,20,13.8,CA,1617052834
5,aklavik,68.2191,-135.0107,-0.4,60,75,6.91,CA,1617052864
6,punta arenas,-53.15,-70.9167,48.2,93,75,5.75,CL,1617052783
7,tuktoyaktuk,69.4541,-133.0374,-11.2,77,20,16.11,CA,1617053421
8,pisco,-13.7,-76.2167,73.4,68,0,23.02,PE,1617052863
9,mataura,-46.1927,168.8643,54.0,97,100,1.9,NZ,1617052830
10,nizwa,22.9333,57.5333,80.26,20,37,4.56,OM,1617053422
11,avarua,-21.2078,-159.775,84.2,74,20,13.8,CK,1617052823
12,puerto ayora,-0.7393,-90.3518,82.4,78,20,11.5,EC,1617053093
13,lompoc,34.6391,-120.4579,64.0,67,0,18.41,US,1617052649
14,rikitea,-23.1203,-134.9692,79.03,68,11,15.05,PF,1617053423
15,busselton,-33.65,115.3333,62.01,95,13,4.68,AU,1617053423
16,srivardhan,18.0333,73.0167,78.3,70,78,3.87,IN,1617053369
17,ushuaia,-54.8,-68.3,51.8,62,40,6.91,AR,1617053423
18,vaini,-21.2,-175.2,82.4,83,75,5.75,TO,1617053424
19,cape town,-33.9258,18.4232,64.0,72,0,4.61,ZA,1617053088
20,ribeira grande,38.5167,-28.7,59.0,94,75,23.02,PT,1617053083
21,arlington,32.7357,-97.1081,78.8,22,1,16.11,US,1617053388
22,ruwi,23.5996,58.5507,82.4,32,0,4.61,OM,1617053424
23,mar del plata,-38.0023,-57.5575,64.4,72,20,9.22,AR,1617053089
24,hilo,19.7297,-155.09,73.99,83,90,9.22,US,1617052828
25,carnarvon,-24.8667,113.6333,75.2,94,70,8.05,AU,1617052831
26,areosa,41.7178,-8.8571,62.01,77,0,6.93,PT,1617053425
27,lebu,-37.6167,-73.65,61.3,77,7,3.96,CL,1617052898
28,kulhudhuffushi,6.6221,73.07,82.42,72,100,12.75,MV,1617053425
29,dikson,73.5069,80.5464,-27.51,100,33,7.56,RU,1617052860
30,asfi,32.2994,-9.2372,63.28,81,100,5.46,MA,1617052933
31,port alfred,-33.5906,26.891,68.94,85,85,23.35,ZA,1617052978
32,beatrice,40.2681,-96.747,75.2,29,1,28.77,US,1617053426
33,kahului,20.8947,-156.47,80.6,57,40,3.44,US,1617053427
34,shenzhen,22.5455,114.0683,77.0,99,21,6.58,CN,1617053373
35,barrow,71.2906,-156.7887,-2.2,65,1,24.16,US,1617052839
36,vostok,46.4856,135.8833,31.19,99,100,3.2,RU,1617052879
37,yerbogachen,61.2767,108.0108,13.68,98,100,1.68,RU,1617053231
38,new norfolk,-42.7826,147.0587,51.01,70,100,3.22,AU,1617053082
39,chokurdakh,70.6333,147.9167,-5.37,99,97,5.73,RU,1617052831
40,mount gambier,-37.8333,140.7667,51.8,100,90,1.23,AU,1617053091
41,talara,-4.5772,-81.2719,86.0,48,40,16.11,PE,1617053209
42,kavieng,-2.5744,150.7967,82.85,76,99,13.53,PG,1617052837
43,languyan,5.2618,120.0807,80.1,79,50,6.58,PH,1617053428
44,chuy,-33.6971,-53.4616,67.75,87,12,12.19,UY,1617052748
45,srandakan,-7.9386,110.2506,77.23,90,94,1.43,ID,1617053429
46,ekibastuz,51.6667,75.3667,21.54,94,79,10.04,KZ,1617053429
47,gazojak,41.1875,61.4036,44.51,51,7,3.42,TM,1617053429
48,bluff,-46.6,168.3333,55.0,97,100,6.22,NZ,1617053430
49,lichuan,30.3,108.85,56.43,97,100,4.03,CN,1617053430
50,qaanaaq,77.484,-69.3632,-14.21,68,44,7.54,GL,1617053430
51,grindavik,63.8424,-22.4338,30.2,64,40,16.11,IS,1617052886
52,mattru,7.6244,-11.8332,77.67,90,100,0.56,SL,1617053431
53,san andres,12.5847,-81.7006,86.0,66,20,16.11,CO,1617053431
54,bethel,41.3712,-73.414,51.8,25,1,8.05,US,1617052910
55,kapaa,22.0752,-159.319,77.0,69,40,13.8,US,1617052857
56,kolomak,49.8399,35.3044,36.23,75,0,6.8,UA,1617053432
57,jamestown,42.097,-79.2353,41.0,52,1,8.75,US,1617053341
58,igarka,67.4667,86.5833,-15.77,94,41,12.01,RU,1617053079
59,severo-kurilsk,50.6789,156.125,35.22,96,100,18.37,RU,1617052836
60,ucluelet,48.9329,-125.5528,50.0,57,1,21.85,CA,1617053329
61,le port,-20.9373,55.2919,73.4,88,0,6.91,RE,1617053432
62,nova prata,-28.7839,-51.61,69.8,68,40,6.91,BR,1617053433
63,dingle,10.9995,122.6711,75.04,93,73,6.67,PH,1617052904
64,yuzhno-kurilsk,44.0306,145.8556,38.52,90,46,3.91,RU,1617053433
65,tomatlan,19.9333,-105.25,89.76,30,93,10.96,MX,1617053074
66,sitka,57.0531,-135.33,37.4,87,90,6.91,US,1617053433
67,mackenzie,55.2999,-123.1698,28.4,40,20,2.3,CA,1617053037
68,am timan,11.0297,20.2827,82.9,14,0,7.81,TD,1617053434
69,xinyu,27.8043,114.9334,69.73,95,86,5.03,CN,1617053434
70,westport,41.1415,-73.3579,53.6,26,1,13.8,US,1617053169
71,khatanga,71.9667,102.5,-25.47,97,27,11.74,RU,1617053435
72,pinheiro machado,-31.5783,-53.3811,66.99,87,77,11.99,BR,1617053435
73,vao,-22.6667,167.4833,78.93,68,100,9.06,NC,1617052921
74,hobart,-42.8794,147.3294,51.01,87,0,4.61,AU,1617052978
75,san carlos de bariloche,-41.1456,-71.3082,80.01,8,0,11.5,AR,1617053435
76,bredasdorp,-34.5322,20.0403,53.6,94,43,1.99,ZA,1617053436
77,kodiak,57.79,-152.4072,46.4,61,20,9.22,US,1617052841
78,albany,42.6001,-73.9662,46.0,34,2,1.99,US,1617053189
79,bonavista,48.6499,-53.1147,37.0,100,100,18.41,CA,1617053436
80,valdivia,-39.8142,-73.2459,75.2,46,97,4.61,CL,1617052846
81,okhotsk,59.3833,143.3,15.94,91,100,5.12,RU,1617053437
82,havoysund,70.9963,24.6622,37.4,80,40,10.36,NO,1617052970
83,shubarkuduk,49.1447,56.4872,31.01,93,100,4.79,KZ,1617053437
84,paamiut,61.994,-49.6678,27.59,66,100,19.19,GL,1617053271
85,laguna,38.421,-121.4238,73.99,24,1,16.11,US,1617052759
86,bambous virieux,-20.3428,57.7575,75.99,88,20,6.91,MU,1617053228
87,kruisfontein,-34.0033,24.7314,66.99,83,29,5.99,ZA,1617052934
88,san patricio,28.017,-97.5169,69.01,72,90,14.97,US,1617053106
89,east london,-33.0153,27.9116,69.28,84,99,18.01,ZA,1617053084
90,bahia honda,22.9036,-83.1592,82.33,61,55,14.0,CU,1617053438
91,havre-saint-pierre,50.2334,-63.5986,32.0,86,90,16.11,CA,1617052886
92,alice springs,-23.7,133.8833,59.0,67,0,6.91,AU,1617053343
93,arraial do cabo,-22.9661,-42.0278,84.2,83,40,6.91,BR,1617053092
94,machilipatnam,16.1667,81.1333,79.9,83,49,9.4,IN,1617053439
95,rio grande,-32.035,-52.0986,77.0,53,40,11.5,BR,1617053128
96,longyearbyen,78.2186,15.6401,26.6,74,75,26.46,SJ,1617052863
97,victoria,22.2855,114.1577,78.01,87,25,6.89,HK,1617053439
98,ponta do sol,32.6667,-17.1,62.6,72,20,14.97,PT,1617053062
99,zykovo,55.9519,93.1461,32.0,80,40,11.18,RU,1617053440
100,san jose,37.3394,-121.895,64.99,42,1,13.8,US,1617053087
101,neiafu,-18.65,-173.9833,84.2,79,40,10.36,TO,1617053440
102,sao filipe,14.8961,-24.4956,69.93,73,69,12.66,CV,1617053128
103,puro,12.4841,123.3827,78.28,86,100,5.97,PH,1617053441
104,amga,60.8953,131.9608,19.22,95,100,6.44,RU,1617053441
105,saint george,37.1041,-113.5841,77.0,14,1,4.61,US,1617053115
106,praia da vitoria,38.7333,-27.0667,60.8,88,40,22.08,PT,1617053087
107,honningsvag,70.9821,25.9704,37.4,75,75,14.97,NO,1617053023
108,nikolskoye,59.7035,30.7861,44.6,61,90,8.95,RU,1617053442
109,san quintin,30.4833,-115.95,67.64,57,100,12.84,MX,1617053090
110,kaitangata,-46.2817,169.8464,61.0,81,100,4.0,NZ,1617053442
111,itarema,-2.9248,-39.9167,78.89,81,58,7.23,BR,1617053220
112,pocone,-16.2567,-56.6228,87.55,37,37,2.08,BR,1617053443
113,port elizabeth,-33.918,25.5701,66.2,88,20,14.97,ZA,1617053105
114,ambon,-3.6954,128.1814,77.0,88,20,5.75,ID,1617053443
115,carsamba,41.1989,36.7219,46.4,81,75,11.5,TR,1617053443
116,danville,36.586,-79.395,63.0,27,1,8.05,US,1617052837
117,atuona,-9.8,-139.0333,80.49,79,28,18.79,PF,1617053444
118,itaituba,-4.2761,-55.9836,91.4,58,20,9.22,BR,1617052729
119,port-gentil,-0.7193,8.7815,78.8,94,40,3.49,GA,1617052918
120,pallipattu,13.3386,79.4449,75.67,88,95,2.08,IN,1617053444
121,ust-barguzin,53.45,108.9833,15.58,96,73,1.28,RU,1617053445
122,port lincoln,-34.7333,135.8667,63.9,82,2,6.93,AU,1617053088
123,hamilton,39.1834,-84.5333,59.0,31,1,13.8,US,1617052799
124,nanortalik,60.1432,-45.2371,27.72,54,55,2.24,GL,1617052851
125,codrington,-38.2667,141.9667,52.02,83,100,4.05,AU,1617052880
126,mao,39.8885,4.2658,53.6,94,0,9.22,ES,1617052865
127,byron bay,-28.65,153.6167,66.2,94,75,5.75,AU,1617053272
128,anadyr,64.75,177.4833,6.8,85,75,15.66,RU,1617052865
129,udimskiy,61.1417,45.9144,27.28,94,25,8.57,RU,1617053446
130,tabuk,17.4189,121.4443,71.58,84,11,3.29,PH,1617052868
131,avera,33.194,-82.5271,69.8,32,1,3.44,US,1617053446
132,choya,52.0108,86.5467,16.54,96,65,3.65,RU,1617053447
133,butaritari,3.0707,172.7902,81.3,79,24,14.09,KI,1617053447
134,padang,-0.9492,100.3543,73.4,100,40,2.3,ID,1617052863
135,florianopolis,-27.6146,-48.5012,78.01,94,75,2.3,BR,1617053447
136,zhigansk,66.7697,123.3711,14.0,99,100,5.23,RU,1617053015
137,constantine,36.365,6.6147,55.4,76,0,5.75,DZ,1617053413
138,bathsheba,13.2167,-59.5167,80.6,61,40,20.71,BB,1617053349
139,borogontsy,62.6683,131.1683,10.38,94,100,3.18,RU,1617053448
140,guerrero negro,27.9769,-114.0611,78.91,29,99,12.03,MX,1617053132
141,portland,45.5234,-122.6762,52.0,57,40,10.36,US,1617052709
142,fairbanks,64.8378,-147.7164,28.99,80,90,8.05,US,1617052878
143,la rioja,42.25,-2.5,60.8,48,0,8.05,ES,1617053449
144,sur,22.5667,59.5289,83.82,38,32,6.87,OM,1617052977
145,paracuru,-3.41,-39.0306,82.0,76,52,8.99,BR,1617053449
146,fort nelson,58.8053,-122.7002,15.8,57,20,4.61,CA,1617053085
147,lincoln,40.8,-96.667,78.8,24,1,27.63,US,1617053368
148,pala,9.3642,14.9046,83.28,14,0,8.43,TD,1617053450
149,saint-philippe,-21.3585,55.7679,77.0,78,0,6.91,RE,1617053450
150,dasoguz,41.8363,59.9666,41.0,65,0,6.91,TM,1617053450
151,muros,42.7762,-9.0603,60.01,75,99,5.01,ES,1617053451
152,khorixas,-20.3667,14.9667,71.1,68,96,15.12,NA,1617052924
153,santa cruz,-17.8,-63.1667,77.0,60,61,13.8,BO,1617053030
154,arlit,18.7369,7.3853,73.36,10,0,13.24,NE,1617053198
155,batemans bay,-35.7167,150.1833,55.0,77,41,3.0,AU,1617053404
156,nishihara,26.1842,127.7558,73.4,100,75,9.22,JP,1617052900
157,golaghat,26.5167,93.9667,75.34,22,85,5.26,IN,1617053452
158,belaya gora,68.5333,146.4167,-6.83,99,98,3.15,RU,1617053228
159,lyuban,52.7985,28.0048,39.24,73,60,6.8,BY,1617053452
160,teknaf,20.8624,92.3058,73.72,88,50,3.31,BD,1617052906
161,grand gaube,-20.0064,57.6608,75.99,82,20,5.55,MU,1617053085
162,tuatapere,-46.1333,167.6833,54.0,97,100,3.29,NZ,1617052870
163,saldanha,-33.0117,17.9442,64.4,88,0,2.3,ZA,1617053453
164,cidreira,-30.1811,-50.2056,71.37,64,2,9.24,BR,1617053453
165,surt,31.2089,16.5887,60.91,64,1,10.69,LY,1617052898
166,narsaq,60.9167,-46.05,24.8,50,20,6.91,GL,1617053453
167,toppenish,46.3774,-120.3087,51.01,31,19,15.08,US,1617053454
168,molteno,-31.3968,26.3625,54.39,63,1,4.38,ZA,1617053454
169,nadezhda,44.1,44.6,40.51,76,75,6.42,RU,1617053454
170,harper,4.375,-7.7169,78.98,85,21,5.53,LR,1617052857
171,bhum,18.4667,75.6667,82.24,18,53,11.86,IN,1617053455
172,hasaki,35.7333,140.8333,57.2,88,75,6.91,JP,1617053004
173,emerald,-23.5333,148.1667,69.8,56,0,9.22,AU,1617053455
174,mayo,38.8876,-76.5119,59.0,33,1,11.5,US,1617052738
175,castro,-24.7911,-50.0119,63.93,93,72,5.32,BR,1617053456
176,lyskovo,56.0328,45.0422,21.6,97,34,2.64,RU,1617053456
177,torbay,47.6666,-52.7314,36.0,100,90,39.12,CA,1617053456
178,skibbereen,51.55,-9.2667,48.2,100,90,13.8,IE,1617053456
179,fortuna,40.5982,-124.1573,55.99,46,1,23.02,US,1617053017
180,yulara,-25.2406,130.9889,62.6,55,0,8.05,AU,1617053457
181,mareeba,-17.0,145.4333,78.8,65,100,14.97,AU,1617053457
182,acapulco,16.8634,-99.8901,87.8,62,75,8.05,MX,1617052837
183,huanan,46.2167,130.5167,37.45,96,100,13.47,CN,1617053458
184,saskylakh,71.9167,114.0833,-16.51,98,99,6.29,RU,1617053458
185,ypsonas,34.6884,32.9574,51.8,71,0,3.44,CY,1617053458
186,mahebourg,-20.4081,57.7,75.2,88,20,6.91,MU,1617053459
187,kiunga,-6.1219,141.2906,74.25,99,99,1.54,PG,1617053459
188,lagoa,39.05,-27.9833,58.93,82,100,12.48,PT,1617052888
189,baker city,44.7749,-117.8344,44.6,33,40,17.27,US,1617053459
190,bahia blanca,-38.7196,-62.2724,69.94,30,14,8.48,AR,1617053460
191,pokhara,28.2333,83.9833,65.97,29,17,6.93,NP,1617053460
192,hualmay,-11.0964,-77.6139,72.63,77,84,9.86,PE,1617053460
193,klyuchi,52.2667,79.1667,21.47,89,92,16.71,RU,1617053461
194,esperance,-33.8667,121.9,82.4,24,91,19.57,AU,1617053461
195,villa carlos paz,-31.4241,-64.4978,78.01,37,0,3.0,AR,1617053461
196,greenville,35.6127,-77.3663,66.0,29,1,4.61,US,1617052816
197,kitimat,54.0524,-128.6534,42.01,58,99,1.99,CA,1617052922
198,katherine,-14.4667,132.2667,71.6,88,93,6.91,AU,1617053395
199,coihaique,-45.5752,-72.0662,75.2,46,0,6.91,CL,1617053046
200,eyl,7.9803,49.8164,77.63,74,75,7.36,SO,1617052845
201,north bend,43.4065,-124.2243,53.01,57,40,16.11,US,1617053462
202,wukari,7.85,9.7833,88.02,19,97,3.94,NG,1617052976
203,bulolo,-7.2,146.65,73.92,91,99,1.95,PG,1617053462
204,chirilagua,13.2203,-88.1386,102.2,30,0,4.61,SV,1617053463
205,balkhash,46.844,74.9804,28.18,62,99,6.78,KZ,1617053064
206,moron,-34.6534,-58.6198,73.99,56,20,6.91,AR,1617053032
207,sabha,27.0377,14.4283,64.53,24,15,15.73,LY,1617052695
208,dubrovnik,42.6481,18.0922,62.6,29,0,23.02,HR,1617053463
209,sinnamary,5.3833,-52.95,78.48,86,87,14.88,GF,1617053392
210,obihiro,42.9172,143.2044,40.57,82,43,4.72,JP,1617053464
211,stephenville,32.2207,-98.2023,77.0,20,1,12.66,US,1617053464
212,junction city,39.0286,-96.8314,78.8,24,1,26.46,US,1617053464
213,uddevalla,58.3478,11.9424,46.4,93,90,17.27,SE,1617053465
214,edson,53.5835,-116.4356,21.2,53,90,24.16,CA,1617053465
215,strezhevoy,60.7333,77.5889,1.4,85,0,4.47,RU,1617052875
216,williams lake,52.1415,-122.1445,37.0,50,75,4.61,CA,1617053242
217,hay river,60.8156,-115.7999,3.2,55,98,13.8,CA,1617053107
218,tilichiki,60.4667,166.1,1.87,86,18,4.79,RU,1617053466
219,huaidian,33.4333,115.0333,48.47,54,6,8.1,CN,1617053466
220,kupang,-10.1667,123.5833,75.2,100,90,17.27,ID,1617053064
221,richards bay,-28.783,32.0377,65.71,83,49,4.45,ZA,1617053153
222,tazovskiy,67.4667,78.7,-5.67,88,100,5.01,RU,1617053072
223,alta floresta,-9.8756,-56.0861,89.6,58,40,6.91,BR,1617053085
224,constitucion,-35.3333,-72.4167,61.65,72,47,4.85,CL,1617052973
225,ancud,-41.8697,-73.8203,69.8,60,0,14.97,CL,1617053467
226,coquimbo,-29.9533,-71.3436,64.4,68,20,13.8,CL,1617053202
227,vila franca do campo,37.7167,-25.4333,60.8,88,40,12.66,PT,1617053097
228,bubaque,11.2833,-15.8333,76.32,71,15,16.22,GW,1617053467
229,carutapera,-1.195,-46.02,77.09,92,100,6.67,BR,1617052950
230,sambava,-14.2667,50.1667,77.68,90,100,3.96,MG,1617052696
231,airai,-8.9266,125.4092,59.56,98,100,4.43,TL,1617053468
232,puerto escondido,15.85,-97.0667,87.8,70,1,9.22,MX,1617053220
233,campo verde,-20.4167,-54.0667,86.0,51,20,10.36,BR,1617053468
234,ostrovnoy,68.0531,39.5131,35.11,95,100,25.05,RU,1617052815
235,slave lake,55.2834,-114.769,19.4,68,90,28.77,CA,1617053414
236,eydhafushi,5.1033,73.0708,81.63,71,100,14.03,MV,1617053469
237,karibib,-21.9333,15.8333,69.8,66,78,15.43,NA,1617053469
238,mamlyutka,54.9375,68.5394,13.39,94,100,5.91,KZ,1617053470
239,dudinka,69.4058,86.1778,-16.98,94,19,14.07,RU,1617053470
240,chipinge,-20.1883,32.6236,56.3,91,5,3.89,ZW,1617053235
241,the valley,18.217,-63.0578,82.4,78,40,16.11,AI,1617053470
242,meulaboh,4.1363,96.1285,75.29,92,100,4.36,ID,1617053050
243,tairua,-37.0167,175.85,69.01,93,100,10.0,NZ,1617053471
244,caravelas,-17.7125,-39.2481,79.03,71,0,7.87,BR,1617053286
245,saint-jean-port-joli,47.2171,-70.2658,33.8,47,29,13.8,CA,1617053471
246,souillac,-20.5167,57.5167,75.2,88,20,6.91,MU,1617052924
247,fjerritslev,57.0813,9.2664,48.0,100,90,16.11,DK,1617053471
248,shimoda,34.6667,138.95,63.0,90,34,1.63,JP,1617053472
249,rawson,-43.3002,-65.1023,70.02,46,5,17.0,AR,1617053274
250,nome,64.5011,-165.4064,35.01,93,90,5.75,US,1617053472
251,mbini,1.574,9.6134,78.8,100,20,3.98,GQ,1617053472
252,tzucacab,20.0667,-89.05,93.94,28,39,6.44,MX,1617053473
253,makuyuni,-4.7333,38.1,71.74,90,70,1.23,TZ,1617053473
254,luderitz,-26.6481,15.1594,62.51,82,0,8.12,NA,1617052883
255,mongagua,-24.0931,-46.6208,84.99,83,90,3.44,BR,1617053474
256,gidole,5.65,37.3667,61.45,56,29,4.29,ET,1617053474
257,gondanglegi,-7.7479,112.0132,75.09,93,100,3.27,ID,1617053474
258,klaksvik,62.2266,-6.589,41.0,75,20,11.5,FO,1617052902
259,marataizes,-21.0433,-40.8244,77.94,88,8,10.31,BR,1617053475
260,itacoatiara,-3.1431,-58.4442,76.64,94,39,3.18,BR,1617053476
261,touros,-5.1989,-35.4608,82.4,78,40,10.36,BR,1617053476
262,manaus,-3.1019,-60.025,80.6,83,40,3.44,BR,1617053360
263,ariquemes,-9.9133,-63.0408,76.89,94,88,1.03,BR,1617053476
264,faanui,-16.4833,-151.75,82.44,71,51,15.84,PF,1617053477
265,atar,20.5169,-13.0499,82.78,20,4,7.63,MR,1617052759
266,alofi,-19.0595,-169.9187,84.2,79,11,13.8,NU,1617053027
267,pochutla,15.7432,-96.4661,91.4,43,1,11.5,MX,1617053477
268,kon tum,14.35,108.0,73.9,53,71,2.01,VN,1617053478
269,morganton,35.7454,-81.6848,66.2,24,1,6.91,US,1617053478
270,mehamn,71.0357,27.8492,37.4,80,0,13.8,NO,1617053320
271,erenhot,43.6475,111.9767,42.22,28,100,9.78,CN,1617053478
272,aasiaat,68.7098,-52.8699,3.67,81,93,10.42,GL,1617053479
273,matagami,49.7502,-77.6328,26.6,54,1,5.75,CA,1617053204
274,narasannapeta,18.4167,84.05,76.5,88,12,7.29,IN,1617053263
275,novo aripuana,-5.1206,-60.3797,76.35,96,100,1.72,BR,1617053479
276,kysyl-syr,63.8986,122.7617,-0.99,99,96,2.37,RU,1617053480
277,thompson,55.7435,-97.8558,12.2,85,90,20.71,CA,1617053414
278,sistranda,63.7256,8.834,44.6,65,40,35.68,NO,1617053019
279,hami,42.8,93.45,53.19,31,100,17.6,CN,1617053480
280,antropovo,58.3988,43.0066,24.04,94,10,5.7,RU,1617053480
281,nantucket,41.2835,-70.0995,50.0,40,1,25.32,US,1617053015
282,leshan,29.5623,103.7639,67.59,63,96,2.37,CN,1617053481
283,georgetown,5.4112,100.3354,81.0,94,40,3.44,MY,1617053431
284,puerto ayacucho,5.6639,-67.6236,85.89,64,100,5.7,VE,1617053481
285,robe,-37.1833,139.75,59.2,85,61,2.44,AU,1617053482
286,sokoni,-6.4333,39.55,80.6,89,40,9.22,TZ,1617053482
287,mossendjo,-2.9506,12.7261,69.67,98,73,1.77,CG,1617053468
288,myitkyina,25.3833,97.4,62.11,34,2,1.83,MM,1617053482
289,ornes,66.8689,13.7078,39.2,93,75,17.27,NO,1617053483
290,salalah,17.0151,54.0924,80.6,41,0,4.61,OM,1617053483
291,camocim,-2.9022,-40.8411,77.99,86,37,8.32,BR,1617053483
292,nadym,65.5333,72.5167,8.74,95,100,13.18,RU,1617053465
293,talnakh,69.4865,88.3972,-23.44,99,27,2.19,RU,1617052897
294,ishinomaki,38.4167,141.3,50.0,76,100,5.75,JP,1617053484
295,dalaba,10.7,-12.25,69.89,71,89,4.52,GN,1617053484
296,albanel,48.8832,-72.4487,24.8,54,28,23.02,CA,1617053484
297,shakawe,-18.3667,21.85,66.29,72,43,5.08,BW,1617053485
298,abu kamal,34.4506,40.9171,56.66,28,25,2.86,SY,1617053485
299,bonthe,7.5264,-12.505,79.41,84,83,7.7,SL,1617053006
300,kailua,21.4022,-157.7394,82.4,51,40,14.97,US,1617053354
301,najran,17.4924,44.1277,66.2,32,3,4.03,SA,1617053011
302,tual,-5.6667,132.75,82.09,75,98,8.59,ID,1617053213
303,concordia,-31.393,-58.0209,75.2,60,40,9.22,AR,1617053375
304,birecik,37.0294,37.9903,41.0,75,0,1.14,TR,1617053486
305,aksu,41.1231,80.2644,46.76,61,65,8.03,CN,1617053031
306,nago,26.5881,127.9761,73.4,94,90,6.91,JP,1617053486
307,gornopravdinsk,60.05,69.9,-2.42,99,77,1.99,RU,1617053221
308,komsomolskiy,40.4272,71.7189,41.0,75,64,2.8,UZ,1617053049
309,chernyshevskiy,63.0128,112.4714,7.16,98,99,1.36,RU,1617053251
310,jorochito,-18.05,-63.4333,77.0,60,95,13.8,BO,1617053487
311,conceicao do araguaia,-8.2578,-49.2647,84.2,70,0,6.91,BR,1617053205
312,nioro,13.35,-15.75,79.0,44,3,8.59,GM,1617053487
313,martil,35.6166,-5.2752,60.8,88,75,8.05,MA,1617053488
314,grabovo,53.3875,45.064,20.26,98,23,2.53,RU,1617053488
315,hithadhoo,-0.6,73.0833,82.62,76,100,27.67,MV,1617052970
316,pedreiras,-4.5688,-44.6003,75.22,96,94,2.8,BR,1617053488
317,tiznit,29.5833,-9.5,59.67,64,0,2.19,MA,1617053489
318,la ronge,55.1001,-105.2842,17.6,86,100,16.11,CA,1617053266
319,chivay,-15.6383,-71.6011,54.3,67,99,8.37,PE,1617053489
320,san luis,-33.295,-66.3356,75.72,23,0,3.67,AR,1617053237
321,sandy bay,-42.913,147.3532,51.01,87,0,4.61,AU,1617053489
322,stornoway,58.2093,-6.3865,52.0,93,90,23.02,GB,1617052637
323,ganzhou,28.8184,115.4327,68.2,94,99,4.61,CN,1617053251
324,egvekinot,66.3167,-179.1667,6.84,77,100,15.66,RU,1617053490
325,lensk,60.7253,114.9278,9.52,96,100,2.98,RU,1617052870
326,migori,-1.0634,34.4731,62.98,91,100,5.08,KE,1617053490
327,jalu,29.0331,21.5482,60.28,33,64,10.89,LY,1617052923
328,vincennes,48.85,2.4333,59.0,47,0,4.61,FR,1617053491
329,gamba,-2.65,10.0,76.8,86,82,1.5,GA,1617052905
330,anchorage,61.2181,-149.9003,41.0,56,40,13.8,US,1617052947
331,faya,18.3851,42.4509,64.4,48,0,3.27,SA,1617053491
332,seoul,37.5683,126.9778,37.4,87,3,3.44,KR,1617053368
333,birao,10.2849,22.7882,77.02,14,1,6.29,CF,1617053492
334,quelimane,-17.8786,36.8883,78.8,78,75,4.61,MZ,1617053492
335,banda aceh,5.5577,95.3222,78.3,83,100,10.76,ID,1617053492
336,bhatkal,13.9667,74.5667,81.12,83,85,6.02,IN,1617053493
337,giyani,-23.3025,30.7187,65.53,70,0,2.44,ZA,1617053493
338,palasa,18.7667,84.4167,76.05,79,35,10.29,IN,1617053493
339,shalakusha,62.2247,40.2539,35.38,89,100,11.39,RU,1617053494
340,geraldton,-28.7667,114.6,75.2,60,75,4.61,AU,1617052978
341,antofagasta,-23.65,-70.4,66.2,68,20,16.11,CL,1617052792
342,saint-augustin,51.226,-58.6502,34.66,99,100,13.33,CA,1617053002
343,okato,-39.2,173.8833,66.99,95,100,8.01,NZ,1617053232
344,te anau,-45.4167,167.7167,52.75,84,100,1.34,NZ,1617053096
345,tirat karmel,32.7617,34.9719,53.01,77,93,1.01,IL,1617053494
346,tandil,-37.3217,-59.1332,60.87,57,6,3.89,AR,1617053495
347,gat,31.61,34.7642,55.4,67,0,4.61,IL,1617053495
348,mildura,-34.2,142.15,50.0,71,12,4.61,AU,1617053495
349,kedrovyy,56.1667,91.8167,32.0,80,40,11.18,RU,1617053496
350,cabo san lucas,22.8909,-109.9124,81.0,38,75,4.61,MX,1617052962
351,jaitaran,26.2031,73.9364,78.91,22,49,13.44,IN,1617053496
352,yermekeyevo,54.0761,53.6712,29.86,94,100,6.02,RU,1617053496
353,lorengau,-2.0226,147.2712,81.63,81,99,4.94,PG,1617053489
354,urukh,43.2933,44.0265,42.8,65,75,4.47,RU,1617053497
355,half moon bay,37.4636,-122.4286,64.99,71,20,9.22,US,1617053497
356,bourail,-21.5667,165.4833,80.1,65,85,6.55,NC,1617053498
357,kaeo,-35.1,173.7833,69.01,97,90,5.01,NZ,1617053498
358,aripuana,-9.1667,-60.6333,77.86,95,96,2.13,BR,1617053217
359,balakhta,55.38,91.6,19.38,81,52,8.77,RU,1617053498
360,shellbrook,53.2168,-106.4011,24.8,86,90,21.85,CA,1617053499
361,doha,25.2867,51.5333,69.8,52,0,12.66,QA,1617053499
362,shahe,39.2708,113.5478,42.12,46,54,2.26,CN,1617053499
363,murray bridge,-35.1167,139.2667,55.0,99,5,1.12,AU,1617053413
364,ampanihy,-24.7,44.75,67.86,86,2,4.83,MG,1617053202
365,kayes,14.0,-11.0,97.43,23,89,4.72,ML,1617053500
366,matara,5.9485,80.5353,72.91,91,100,9.33,LK,1617053500
367,dauphin,51.1494,-100.0502,42.24,94,100,7.65,CA,1617053500
368,matadi,-5.8167,13.45,76.42,96,88,2.53,CD,1617053501
369,waterloo,43.4668,-80.5164,42.8,52,1,10.36,CA,1617053360
370,filadelfia,39.9523,-75.1638,55.99,30,1,13.8,US,1617053419
371,baruun-urt,46.6806,113.2792,37.53,26,100,11.54,MN,1617053501
372,mendoza,-32.8908,-68.8272,80.6,19,0,6.91,AR,1617053252
373,bengkulu,-3.8004,102.2655,75.34,89,79,2.89,ID,1617053502
374,pachino,36.7186,15.0907,46.4,93,17,4.61,IT,1617053502
375,celestun,20.8667,-90.4,82.58,68,25,15.48,MX,1617053502
376,dicabisagan,17.0818,122.4157,75.45,88,47,4.79,PH,1617053272
377,oranjemund,-28.55,16.4333,60.21,88,0,3.38,NA,1617053503
378,olinda,-8.0089,-34.8553,80.6,74,40,5.75,BR,1617053261
379,havre,49.5833,0.3333,55.4,71,0,4.61,FR,1617053503
380,visnes,59.3556,5.2242,45.0,100,90,8.05,NO,1617053504
381,maceio,-9.6658,-35.7353,78.8,89,75,6.91,BR,1617053504
382,owando,-0.4819,15.8999,71.76,96,44,2.82,CG,1617053504
383,olga,43.7444,135.2892,36.16,80,13,3.91,RU,1617053505
384,makat,47.6469,53.3463,37.06,64,84,5.66,KZ,1617053505
385,aleksandrovskiy zavod,50.9237,117.9374,20.98,74,81,2.21,RU,1617053505
386,nizhnevartovsk,60.9344,76.5531,1.4,85,0,4.47,RU,1617053505
387,obidos,-1.9175,-55.5181,77.23,88,43,3.83,BR,1617053506
388,yamada,39.4667,141.95,49.3,70,96,4.18,JP,1617053506
389,propria,-10.2111,-36.8403,77.47,84,76,8.3,BR,1617053506
390,ambilobe,-13.2,49.05,74.46,95,95,2.13,MG,1617053507
391,lantana,26.5867,-80.052,82.99,69,75,11.5,US,1617053507
392,poum,-20.2333,164.0167,79.43,77,100,7.54,NC,1617053507
393,malanje,-9.5402,16.341,65.23,90,89,3.62,AO,1617053508
394,cap malheureux,-19.9842,57.6142,75.99,82,16,6.02,MU,1617053508
395,miri,4.4148,114.0089,75.2,94,40,3.44,MY,1617053508
396,provideniya,64.3833,-173.3,23.0,74,75,4.47,RU,1617053509
397,parczew,51.6402,22.9006,48.2,81,90,5.75,PL,1617053509
398,lithgow,-33.4833,150.15,63.0,81,49,2.17,AU,1617053509
399,san felipe,10.3399,-68.7425,74.89,92,96,6.38,VE,1617053509
400,port blair,11.6667,92.75,80.44,78,95,2.19,IN,1617053122
401,smithers,54.7804,-127.1743,35.6,48,90,7.52,CA,1617053510
402,quatre cocos,-20.2078,57.7625,75.99,88,20,6.91,MU,1617053135
403,jacareacanga,-6.2222,-57.7528,79.52,93,62,1.74,BR,1617052935
404,krasnoselkup,65.7,82.4667,-10.32,91,93,8.19,RU,1617053024
405,inuvik,68.3499,-133.7218,3.2,51,81,10.36,CA,1617053510
406,nahrin,36.0649,69.1334,41.29,94,100,4.52,AF,1617053511
407,pangnirtung,66.1451,-65.7125,10.4,72,90,9.22,CA,1617053003
408,svetlaya,46.5389,138.3297,35.49,98,100,6.73,RU,1617053511
409,norman wells,65.282,-126.8329,5.0,51,75,16.11,CA,1617052911
410,calabozo,8.9242,-67.4293,90.03,41,98,9.28,VE,1617053512
411,kiama,-34.6833,150.8667,60.01,79,66,1.99,AU,1617053512
412,bar harbor,44.3876,-68.2039,42.01,42,20,12.66,US,1617053448
413,lehigh acres,26.6254,-81.6248,91.0,40,75,4.61,US,1617053485
414,yumen,40.2833,97.2,46.38,45,100,15.68,CN,1617053000
415,pevek,69.7008,170.3133,-9.29,97,100,4.43,RU,1617053513
416,chateaubelair,13.2833,-61.25,78.8,89,40,17.27,VC,1617053513
417,cacapava do sul,-30.5122,-53.4914,62.82,69,83,3.76,BR,1617053513
418,puerto maldonado,-12.6,-69.1833,84.2,74,20,5.75,PE,1617053513
419,beloha,-25.1667,45.05,68.92,83,0,4.94,MG,1617053012
420,jawhar,2.7809,45.5005,78.4,82,4,9.01,SO,1617053514
421,kansanshi,-12.0951,26.4273,59.07,98,23,4.92,ZM,1617053514
422,beringovskiy,63.05,179.3167,13.03,87,100,19.53,RU,1617053515
423,haines junction,60.7522,-137.5108,32.0,34,91,3.44,CA,1617053096
424,roma,43.2128,-75.4557,41.0,45,20,20.71,US,1617053071
425,paso de carrasco,-34.8603,-56.0522,69.8,83,75,13.8,UY,1617053476
426,parainen,60.3067,22.301,43.0,100,90,11.5,FI,1617053515
427,rostovka,55.3842,71.8891,16.14,94,100,9.8,RU,1617053516
428,umm lajj,25.0213,37.2685,72.64,61,62,13.47,SA,1617053117
429,mbandaka,0.0487,18.2603,71.56,96,96,1.34,CD,1617053516
430,boyabat,41.4689,34.7667,39.22,85,100,4.0,TR,1617053516
431,bambamarca,-6.6833,-78.5333,53.78,94,100,4.7,PE,1617053517
432,nouadhibou,20.931,-17.0347,64.4,88,25,17.27,MR,1617053517
433,anloga,5.7947,0.8973,84.2,79,20,8.05,GH,1617053229
434,saint-pierre,-21.3393,55.4781,77.0,78,0,6.91,RE,1617052931
435,meadow lake,34.8014,-106.5436,75.99,13,75,11.5,US,1617053130
436,omsukchan,62.5333,155.8,-5.82,90,41,2.53,RU,1617053081
437,anuchino,43.9622,133.0544,37.0,82,92,4.61,RU,1617053518
438,broome,42.2506,-75.833,46.99,42,1,14.97,US,1617052925
439,acajutla,13.5928,-89.8275,91.4,31,40,7.92,SV,1617053240
440,aktash,50.3,87.7333,-2.45,91,30,4.07,RU,1617053518
441,ilulissat,69.2167,-51.1,15.8,48,75,10.36,GL,1617053518
442,uchkent,43.1143,47.0826,41.0,87,18,6.71,RU,1617053519
443,sao joao da barra,-21.6403,-41.0511,84.2,65,40,11.5,BR,1617053008
444,kamenka,51.3223,42.7678,33.01,94,76,6.69,RU,1617052936
445,mubende,0.5606,31.39,61.27,99,82,2.73,UG,1617053519
446,zyryanka,65.75,150.85,0.57,91,36,8.16,RU,1617053519
447,olafsvik,64.8945,-23.7142,29.28,66,100,13.96,IS,1617052930
448,lahij,13.1667,44.5833,78.62,30,7,6.29,YE,1617053520
449,xichang,27.8964,102.2634,49.93,32,0,1.05,CN,1617053520
450,zhigalovo,54.8097,105.1578,29.95,97,100,2.98,RU,1617053521
451,samarai,-10.6167,150.6667,82.92,76,100,10.89,PG,1617052999
452,sayyan,15.1718,44.3244,56.44,26,0,4.7,YE,1617053521
453,rapid valley,44.0625,-103.1463,44.6,36,1,36.82,US,1617053519
454,praxedis guerrero,31.3667,-106.0167,78.01,12,40,11.5,MX,1617053521
455,tokur,53.1333,132.9,18.21,91,100,4.92,RU,1617053522
456,bilibino,68.0546,166.4372,-9.67,98,99,1.79,RU,1617053045
457,lavrentiya,65.5833,-171.0,13.95,88,99,12.08,RU,1617053522
458,nicoya,10.1483,-85.452,93.2,33,0,25.32,CR,1617053522
459,dunedin,-45.8742,170.5036,57.99,85,100,7.0,NZ,1617053523
460,labuhan,-6.8844,112.2051,77.79,89,48,6.42,ID,1617053289
461,sokoto,13.0609,5.239,80.31,13,1,10.47,NG,1617053523
462,sola,-13.8833,167.55,84.2,84,75,5.75,VU,1617053524
463,nuuk,64.1835,-51.7216,30.2,51,75,17.27,GL,1617053524
464,kismayo,-0.3582,42.5454,80.17,73,45,13.73,SO,1617053524
465,srednekolymsk,67.45,153.6833,-6.68,97,81,3.38,RU,1617053251
466,sungaipenuh,-2.0833,101.3833,64.06,95,98,1.05,ID,1617053228
467,mount isa,-20.7333,139.5,77.0,33,0,10.36,AU,1617053108
468,bayanday,53.0661,105.5139,24.01,98,90,3.98,RU,1617053525
469,comodoro rivadavia,-45.8667,-67.5,69.8,56,0,12.66,AR,1617052959
470,medak,18.0333,78.2667,79.0,47,8,6.64,IN,1617053525
471,waipawa,-41.4122,175.5153,64.99,94,90,12.66,NZ,1617053526
472,chekhov,55.1431,37.4711,26.01,82,37,4.32,RU,1617053526
473,husavik,66.0449,-17.3389,26.6,80,90,6.91,IS,1617053526
474,katsuura,35.1333,140.3,59.0,94,70,8.46,JP,1617053527
475,kudahuvadhoo,2.6708,72.8944,83.53,71,100,22.97,MV,1617052874
476,deputatskiy,69.3,139.9,-7.91,99,83,3.62,RU,1617053260
477,cayenne,4.9333,-52.3333,82.4,74,75,13.8,GF,1617053028
478,port augusta,-32.5,137.7667,54.0,93,0,5.75,AU,1617053114
479,mufumbwe,-13.6833,24.8,60.53,97,6,5.17,ZM,1617053527
480,lata,40.1629,-8.3327,60.01,83,16,3.42,PT,1617053058
481,muli,2.9167,73.5667,81.68,76,100,19.66,MV,1617053528
482,aktau,43.65,51.2,39.2,100,62,2.24,KZ,1617053528
483,brownsville,25.9018,-97.4975,68.0,68,90,8.05,US,1617053143
484,kigoma,-4.8769,29.6267,69.8,100,75,3.2,TZ,1617053267
485,henties bay,-22.116,14.2845,62.01,90,0,4.0,NA,1617053274
486,balfron,56.0681,-4.3356,51.01,93,75,17.27,GB,1617053529
487,makakilo city,21.3469,-158.0858,82.4,57,90,12.66,US,1617053208
488,iskateley,67.6803,53.1512,33.46,98,100,13.0,RU,1617053252
489,adrian,41.8975,-84.0372,51.01,43,1,13.8,US,1617053529
490,cherskiy,68.75,161.3,-2.67,95,100,8.3,RU,1617053529
491,berlevag,70.8578,29.0864,32.0,80,0,13.8,NO,1617053127
492,pangai,-19.8,-174.35,84.2,79,20,16.11,TO,1617053530
493,harrisburg,40.2737,-76.8844,55.4,26,1,9.22,US,1617053428
494,atyra,-25.25,-57.1667,73.4,68,90,6.91,PY,1617053530
495,yining,29.0361,114.5636,67.03,98,99,1.83,CN,1617053531
496,bandar-e anzali,37.4727,49.4622,48.18,76,11,3.24,IR,1617053531
497,road town,18.4167,-64.6167,80.6,74,40,18.41,VG,1617053126
498,goulburn,-34.75,149.7167,53.01,97,91,4.23,AU,1617053407
499,kununurra,-15.7667,128.7333,73.4,78,92,3.44,AU,1617053079
500,oranjestad,12.524,-70.027,82.4,74,20,21.85,AW,1617053307
501,kabelvag,68.2114,14.4817,37.99,89,100,17.0,NO,1617053532
502,inirida,3.8653,-67.9239,79.38,90,94,0.89,CO,1617053532
503,cuenca,-2.8833,-78.9833,66.2,55,75,11.5,EC,1617053532
504,kargil,34.5667,76.1,25.56,70,21,7.7,IN,1617053533
505,balikpapan,-1.2675,116.8289,74.88,93,100,4.79,ID,1617053533
506,cockburn town,21.4612,-71.1419,82.4,69,40,16.11,TC,1617052964
507,bandarbeyla,9.4942,50.8122,77.85,68,100,6.62,SO,1617053533
508,yuzhnyy,53.2542,83.6936,24.8,86,75,26.84,RU,1617053533
509,bowmore,34.9421,-79.3031,66.2,26,1,4.61,US,1617053534
510,isangel,-19.55,169.2667,80.6,83,20,9.31,VU,1617053005
511,peleduy,59.6289,112.7406,11.88,96,100,1.72,RU,1617053534
512,ndele,8.4109,20.6473,77.63,17,3,5.3,CF,1617053535
513,evensk,61.95,159.2333,-2.43,80,5,4.99,RU,1617052948
514,lumphat,13.4878,106.9816,78.37,64,19,3.53,KH,1617053535
515,port hedland,-20.3167,118.5667,80.6,50,40,6.91,AU,1617053535
516,tiquisate,14.2833,-91.3667,89.6,58,75,13.8,GT,1617053536
517,vila velha,-20.3297,-40.2925,80.6,65,0,10.36,BR,1617053141
518,messina,38.1933,15.5497,57.99,77,0,4.61,IT,1617053536
519,katangli,51.7102,143.2326,31.46,99,100,1.3,RU,1617053536
520,farrukhnagar,17.0778,78.2011,79.0,78,40,4.61,IN,1617053537
521,chake chake,-5.2459,39.7666,80.83,78,62,6.44,TZ,1617053537
522,oyem,1.5995,11.5793,66.79,97,64,1.77,GA,1617053537
523,kharp,66.8014,65.8081,28.67,98,99,4.52,RU,1617053538
524,shingu,33.7333,135.9833,55.15,76,28,4.25,JP,1617053195
525,kieta,-6.2167,155.6333,83.26,71,100,3.42,PG,1617053538
526,kragero,58.8693,9.4149,45.0,92,21,17.31,NO,1617053538
527,bo phloi,14.3236,99.5161,80.51,60,23,4.52,TH,1617053539
528,griffith,41.5284,-87.4237,61.0,44,1,23.02,US,1617053203
529,virginia beach,36.8529,-75.978,64.4,27,1,10.36,US,1617053539
530,sobolevo,54.4299,31.8996,35.42,99,100,8.01,RU,1617053540
531,vuktyl,63.8567,57.3094,32.56,98,100,7.18,RU,1617053540
532,mazatlan,23.2167,-106.4167,75.99,64,90,9.22,MX,1617053540
533,waingapu,-9.6567,120.2641,77.31,91,100,8.52,ID,1617053006
534,mezen,65.8522,44.24,34.88,84,100,11.27,RU,1617053541
535,alenquer,-1.9417,-54.7383,84.2,79,20,6.91,BR,1617053541
536,pierre,44.3683,-100.351,59.0,33,1,34.52,US,1617053541
537,kwinana,-32.25,115.7667,73.4,88,75,2.3,AU,1617053485
538,morondava,-20.2833,44.2833,75.69,76,4,12.8,MG,1617053542
539,xihe,31.6864,113.4659,56.32,80,100,7.58,CN,1617053542
540,vardo,70.3705,31.1107,37.4,75,0,14.97,NO,1617052974
541,castrillon,43.3979,-6.7922,60.8,63,0,2.3,ES,1617053542
542,san cristobal,7.7669,-72.225,82.4,65,75,3.44,VE,1617053110
543,merauke,-8.4667,140.3333,78.21,88,100,8.41,ID,1617053212
544,pringsewu,-5.3582,104.9744,72.88,97,88,2.93,ID,1617053543
545,basar,27.9833,94.6667,55.81,33,5,3.04,IN,1617053543
546,luwuk,-0.9516,122.7875,77.45,84,100,1.86,ID,1617053544
547,inhambane,-23.865,35.3833,69.19,69,0,5.46,MZ,1617053544
548,yar-sale,66.8333,70.8333,10.54,95,100,8.57,RU,1617053367
549,ponta delgada,37.7333,-25.6667,60.8,88,40,12.66,PT,1617053246
550,oussouye,12.485,-16.5469,75.2,83,0,2.3,SN,1617053544
551,rey bouba,8.6724,14.1786,84.36,16,0,1.59,CM,1617053545
552,ishikawa,26.4233,127.8214,73.4,94,90,6.91,JP,1617053545
553,antalaha,-14.9003,50.2788,76.01,91,92,3.58,MG,1617053545
554,dandong,40.1292,124.3947,40.14,42,0,2.51,CN,1617053546
555,sioux lookout,50.1001,-91.917,50.0,46,75,9.22,CA,1617053261
556,boldog,47.6029,19.6884,57.99,58,100,3.44,HU,1617053546
557,ukiah,39.1502,-123.2078,70.0,37,1,4.0,US,1617053425
558,santa marinella,42.0345,11.8536,57.0,100,8,2.3,IT,1617053546
559,san borja,-14.8167,-66.85,76.73,84,29,1.61,BO,1617053547
560,necochea,-38.5473,-58.7368,64.99,81,28,1.01,AR,1617053362
561,mnogovershinnyy,53.9353,139.9242,24.73,95,100,5.64,RU,1617053547
562,solenzo,12.1833,-4.0833,86.9,9,1,6.33,BF,1617053547
563,maumere,-8.6199,122.2111,78.39,88,100,4.92,ID,1617053548
564,dondo,-19.6094,34.7431,80.6,57,40,12.66,MZ,1617053548
565,walvis bay,-22.9575,14.5053,62.01,88,0,5.75,NA,1617053130
566,bull savanna,17.8868,-77.5902,78.71,71,39,12.26,JM,1617053548
567,severobaykalsk,55.65,109.3167,20.57,94,95,1.86,RU,1617053549
568,si satchanalai,17.5169,99.7598,89.01,79,76,2.68,TH,1617053549
569,kidal,18.4411,1.4078,76.23,9,0,10.71,ML,1617053550
